{"client":"Fake Lab","clientType":"brand","drops":{"CO":{"drops":[{"drop_id":2,"retailer_id":5852,"retailer_name":"Fake Dispensary - Denver","drop_name":null,"logo":"\/stores\/25p\/5855.png","address":"2420 17th St.","city":"Denver","lat":"39.75852200","long":"-105.00714000","state":"CO","zip":"80202","phone":"(303) 555 1234","items":[{"photo_id":1671,"name":"Member Berry","type":"Shatter","photo":"https:\/\/assets.shattersearch.com\/a\/storage\/c\/50p-member-berry-shatter-from-fake-lab-1671.png","timestamp":1639959929},{"photo_id":1672,"name":"Purple Punch","type":"Wax","photo":"https:\/\/assets.shattersearch.com\/a\/storage\/c\/50p-purple-punch-wax-from-fake-lab-1672.png","timestamp":1639959929},{"photo_id":1673,"name":"Cherry Diesel","type":"Live Batter","photo":"https:\/\/assets.shattersearch.com\/a\/storage\/c\/50p-cherry-diesel-live-batter-from-fake-lab-1673.png","timestamp":1639959929}],"timesince":"3 weeks ago","timestamp":1639959808}]},"OK":{"drops":[{"drop_id":4,"retailer_id":5859,"retailer_name":"Fake Dispensary - Tulsa","drop_name":null,"logo":"\/stores\/25p\/5855.png","address":"321 S Boston Ave","city":"Tulsa","lat":"36.15210000","long":"-95.98900000","state":"OK","zip":"74103","phone":null,"items":[{"photo_id":1674,"name":"Papaya Punch","type":"Live Badder","photo":"https:\/\/assets.shattersearch.com\/a\/storage\/c\/50p-papaya-punch-live-badder-from-fake-lab-1674.png","timestamp":1641340260},{"photo_id":1675,"name":"Gelato Cake","type":"Live Resin","photo":"https:\/\/assets.shattersearch.com\/a\/storage\/c\/50p-gelato-cake-live-resin-from-fake-lab-1675.png","timestamp":1641340260}],"timesince":"1 week ago","timestamp":1641340152}]}},"retailers":{"CO":[{"name":"Arvada","retailers":[{"retailer_id":4487,"name":"Berkeley Dispensary","logo":"\/stores\/25p\/4487.png","address":"5398 Sheridan Boulevard","lat":"39.79430670","long":"-105.05265920","city":"Arvada","state":"CO","zip":"80002","phone":"(720) 310 8057"}]},{"name":"Aspen","retailers":[{"retailer_id":3073,"name":"Native Roots - Aspen","logo":"\/stores\/25p\/3073.jpg","address":"308 S Hunter St","lat":"39.18830041","long":"-106.81739699","city":"Aspen","state":"CO","zip":"81611","phone":"(970) 429 4443"},{"retailer_id":3985,"name":"The Green Joint - Aspen","logo":"\/stores\/25p\/5745.png","address":"720 E Durant Ave #3","lat":"39.18691580","long":"-106.81642510","city":"Aspen","state":"CO","zip":"81611","phone":"(970) 710 2657"},{"retailer_id":291,"name":"Best Day Ever - Aspen","logo":"\/stores\/25p\/5752.png","address":"520 E Cooper Ave #202","lat":"39.18816840","long":"-106.81816030","city":"Aspen","state":"CO","zip":"81611","phone":"(970) 429 8637"},{"retailer_id":809,"name":"Roots Rx - Aspen","logo":"\/stores\/25p\/5793.png","address":"400 E Hyman Ave","lat":"39.18937700","long":"-106.81951100","city":"Aspen","state":"CO","zip":"81611","phone":"(970) 900 WEED"},{"retailer_id":5399,"name":"Silverpeak - Aspen","logo":"\/stores\/25p\/5399.png","address":"520 E Cooper Ave.","lat":"39.18807430","long":"-106.81808980","city":"Aspen","state":"CO","zip":"81611","phone":"(970) 925 4372"}]},{"name":"Aurora","retailers":[{"retailer_id":5367,"name":"Colorado Harvest Company - Yale","logo":"\/stores\/25p\/5413.png","address":"11002 E Yale Ave","lat":"39.66717460","long":"-104.85982770","city":"Aurora","state":"CO","zip":"80014","phone":"(303) 535 9489"},{"retailer_id":4668,"name":"Lightshade - Illiff","logo":"\/stores\/25p\/4668.png","address":"16821 E Iliff Ave","lat":"39.67464000","long":"-104.79209700","city":"Aurora","state":"CO","zip":"80013","phone":"(720) 575 6703"},{"retailer_id":5595,"name":"Medicine Man - Aurora","logo":"\/stores\/25p\/5386.png","address":"1901 S Havana St.","lat":"39.68174800","long":"-104.86646400","city":"Aurora","state":"CO","zip":"80014","phone":"(303) 923 3825"},{"retailer_id":3847,"name":"Rocky Road - Aurora","logo":"\/stores\/25p\/3847.png","address":"1712 S Chambers Rd","lat":"39.70369000","long":"-104.80935700","city":"Aurora","state":"CO","zip":"80017","phone":"(720) 277 0320"},{"retailer_id":4485,"name":"Altitude The Dispensary - Aurora","logo":"\/stores\/25p\/5747.png","address":"10455 E Colfax Ave","lat":"39.74044520","long":"-104.86621290","city":"Aurora","state":"CO","zip":"80010","phone":"(303) 343 0166"},{"retailer_id":3353,"name":"Xclusive Cannabis - Aurora","logo":false,"address":"15200 E 6th Ave","lat":"39.72553110","long":"-104.81245162","city":"Aurora","state":"CO","zip":"80011","phone":"(720) 738 4200"}]},{"name":"Avon","retailers":[{"retailer_id":1551,"name":"High Country Healing - Vail","logo":"\/stores\/25p\/5744.png","address":"40801 Highway 6 Suite 5","lat":"39.62278890","long":"-106.47937760","city":"Avon","state":"CO","zip":"81620","phone":"(970) 468 7858"},{"retailer_id":166,"name":"Roots Rx - Eagle\/Vail","logo":"\/stores\/25p\/5793.png","address":"40690 U.S. 6","lat":"39.62214800","long":"-106.48135700","city":"Avon","state":"CO","zip":"81620","phone":"(970) 399 9333"}]},{"name":"Basalt","retailers":[{"retailer_id":4617,"name":"Roots Rx - Basalt","logo":"\/stores\/25p\/5793.png","address":"165 Southside Dr.","lat":"39.36323900","long":"-107.03668600","city":"Basalt","state":"CO","zip":"81621","phone":"(970) 539 WEED"}]},{"name":"Boulder","retailers":[{"retailer_id":1756,"name":"Boulder Wellness Center","logo":"\/stores\/25p\/1756.png","address":"5420 Arapahoe Ave F","lat":"40.01401500","long":"-105.22721640","city":"Boulder","state":"CO","zip":"80303","phone":"(303) 442 2565"},{"retailer_id":202,"name":"Eclipse Cannabis Company","logo":"\/stores\/25p\/202.jpeg","address":"933 Alpine Ave #2","lat":"40.02588890","long":"-105.28499730","city":"Boulder","state":"CO","zip":"80304","phone":"(720) 420 0782"},{"retailer_id":5174,"name":"Native Roots - Boulder","logo":"\/stores\/25p\/5174.jpg","address":"1146 Pearl St #200","lat":"40.01774310","long":"-105.28016990","city":"Boulder","state":"CO","zip":"80302","phone":"(720) 726 5126"},{"retailer_id":5212,"name":"The Peaceful Choice","logo":"\/stores\/25p\/5212.jpg","address":"7464 Arapahoe Ave A9","lat":"40.01414680","long":"-105.18161650","city":"Boulder","state":"CO","zip":"80303","phone":"(720) 366 6615"},{"retailer_id":3814,"name":"The Farm","logo":false,"address":"2801 Iris Ave","lat":"40.03666880","long":"-105.25701880","city":"Boulder","state":"CO","zip":"80301","phone":"(303) 440 1323"}]},{"name":"Breckenridge","retailers":[{"retailer_id":319,"name":"Breckenridge Organic Therapy","logo":"\/stores\/25p\/319.png","address":"1900 Airport Rd # A1","lat":"39.50932900","long":"-106.05148740","city":"Breckenridge","state":"CO","zip":"80424","phone":"(970) 453 0420"}]},{"name":"Carbondale","retailers":[{"retailer_id":2687,"name":"Rocky Mountain High - Carbondale","logo":"\/stores\/25p\/5783.png","address":"615 Buggy Cir","lat":"39.40901560","long":"-107.22069670","city":"Carbondale","state":"CO","zip":"81623","phone":"(970) 963 4669"}]},{"name":"Denver","retailers":[{"retailer_id":3494,"name":"The Herbal Center - Broadway","logo":"\/stores\/25p\/5831.png","address":"1909 South Broadway","lat":"39.68184700","long":"-104.98788000","city":"Denver","state":"CO","zip":"80210","phone":"(720) 549 4372"},{"retailer_id":4479,"name":"A Cut Above on Broadway","logo":false,"address":"1911 S Broadway","lat":"39.68186670","long":"-104.98810420","city":"Denver","state":"CO","zip":"80210","phone":"(720) 536 8965"},{"retailer_id":4636,"name":"Botanico\u00b2","logo":"\/stores\/25p\/5650.png","address":"777 Canosa Court","lat":"39.72902350","long":"-105.02021920","city":"Denver","state":"CO","zip":"80204","phone":"(303) 225 5368"},{"retailer_id":816,"name":"Colorado Harvest Company - Kalamath","logo":"\/stores\/25p\/816.png","address":"1178 S Kalamath St.","lat":"39.69528800","long":"-105.00000500","city":"Denver","state":"CO","zip":"80223","phone":"(303) 777 1840"},{"retailer_id":5160,"name":"Colorado Harvest Company - Broadway","logo":"\/stores\/25p\/5160.png","address":"1568 S Broadway","lat":"39.68819330","long":"-104.98728360","city":"Denver","state":"CO","zip":"80210","phone":"(303) 722 1227"},{"retailer_id":5166,"name":"Golden Meds - Oneida","logo":"\/stores\/25p\/5166.png","address":"970 S Oneida St #17","lat":"39.69879590","long":"-104.90722110","city":"Denver","state":"CO","zip":"80224","phone":"(720) 386 4665"},{"retailer_id":4380,"name":"Golden Meds - Peoria","logo":"\/stores\/25p\/4380.png","address":"4620 Peoria St","lat":"39.78022640","long":"-104.84594550","city":"Denver","state":"CO","zip":"80239","phone":"(303) 307 4645"},{"retailer_id":2296,"name":"Green RiNo","logo":"\/stores\/25p\/2296.jpeg","address":"3450 North Brighton Boulevard","lat":"39.77004900","long":"-104.97881600","city":"Denver","state":"CO","zip":"80216","phone":"(303) 433 3151"},{"retailer_id":5583,"name":"Karmaceuticals","logo":"\/stores\/25p\/5583.jpeg","address":"4 S Santa Fe Drive","lat":"39.71642750","long":"-104.99819290","city":"Denver","state":"CO","zip":"80233","phone":"(303) 765 2762"},{"retailer_id":615,"name":"Kind Love","logo":"\/stores\/25p\/615.jpg","address":"4380 E Alameda Ave","lat":"39.71093420","long":"-104.93645730","city":"Denver","state":"CO","zip":"80246","phone":"(303) 565 3600"},{"retailer_id":4612,"name":"Lightshade - 6th Ave","logo":"\/stores\/25p\/4612.png","address":"745 E 6th Ave","lat":"39.72588310","long":"-104.97799010","city":"Denver","state":"CO","zip":"80203","phone":"(720) 899 3040"},{"retailer_id":2176,"name":"Lightshade - Dayton","logo":"\/stores\/25p\/2176.png","address":"330 S Dayton St","lat":"39.70835400","long":"-104.87494700","city":"Denver","state":"CO","zip":"80247","phone":"(720) 699 2690"},{"retailer_id":4665,"name":"Lightshade - Havana","logo":"\/stores\/25p\/4665.png","address":"503 S Havana St","lat":"39.72329980","long":"-104.86641810","city":"Denver","state":"CO","zip":"80010","phone":"(720) 899 3030"},{"retailer_id":1280,"name":"Lightshade - Holly","logo":"\/stores\/25p\/1280.png","address":"3950 Holly Street","lat":"39.77216550","long":"-104.92177490","city":"Denver","state":"CO","zip":"80207","phone":"(303) 468 6100"},{"retailer_id":778,"name":"Lightshade - Peoria","logo":"\/stores\/25p\/778.png","address":"11975 E 40th Ave","lat":"39.77321030","long":"-104.84904750","city":"Denver","state":"CO","zip":null,"phone":"(720) 974 7220"},{"retailer_id":777,"name":"Lightshade - Sheridan","logo":"\/stores\/25p\/777.png","address":"1126 S Sheridan Blvd","lat":"39.69605600","long":"-105.05276490","city":"Denver","state":"CO","zip":null,"phone":"(720) 630 2810"},{"retailer_id":4621,"name":"Lucy Sky Cannabis Boutique - Broadway","logo":"\/stores\/25p\/4621.png","address":"2394 S Broadway","lat":"39.67315300","long":"-104.98752500","city":"Denver","state":"CO","zip":"80210","phone":"(720) 379 7295"},{"retailer_id":5594,"name":"Medicine Man - Denver","logo":"\/stores\/25p\/5386.png","address":"4750 Nome St","lat":"39.78353820","long":"-104.85193770","city":"Denver","state":"CO","zip":"80239","phone":"(303) 373 0752"},{"retailer_id":5743,"name":"Mile High Green Cross","logo":"\/stores\/25p\/5743.png","address":"852 N Broadway #606","lat":"39.73008490","long":"-104.98707760","city":"Denver","state":"CO","zip":"80203","phone":"(303) 861 4252"},{"retailer_id":3079,"name":"Native Roots - Highlands","logo":"\/stores\/25p\/3079.jpg","address":"2209 W 32nd Ave","lat":"39.76223185","long":"-105.01314052","city":"Denver","state":"CO","zip":"80211","phone":"(720) 287 1478"},{"retailer_id":3082,"name":"Native Roots - South Denver","logo":"\/stores\/25p\/3082.jpg","address":"2645 S Sante Fe Dr.","lat":"39.66819100","long":"-104.99649200","city":"Denver","state":"CO","zip":"80223","phone":"(720) 428 8050"},{"retailer_id":5178,"name":"Native Roots - Tower","logo":"\/stores\/25p\/5178.jpg","address":"7050 Tower Rd","lat":"39.82478270","long":"-104.77130550","city":"Denver","state":"CO","zip":"80249","phone":"(720) 428 8990"},{"retailer_id":986,"name":"Rocky Mountain Cannabis","logo":"\/stores\/25p\/986.png","address":"183 W Alameda Ave","lat":"39.71145020","long":"-104.99193150","city":"Denver","state":"CO","zip":"80223","phone":"(303) 552 3569"},{"retailer_id":4363,"name":"Oasis Cannabis Superstore - Denver North","logo":"\/stores\/25p\/4363.jpg","address":"5440 W 44th Ave","lat":"39.77629220","long":"-105.05647490","city":"Denver","state":"CO","zip":"80212","phone":"(303) 333 3338"},{"retailer_id":4358,"name":"Oasis Cannabis Superstore - Denver South","logo":"\/stores\/25p\/4358.jpg","address":"6359 E Evans Ave","lat":"39.67874910","long":"-104.91458100","city":"Denver","state":"CO","zip":"80222","phone":"(303) 756 1494"},{"retailer_id":4682,"name":"Pig N' Whistle","logo":"\/stores\/25p\/4682.jpg","address":"4801 W Colfax Ave","lat":"39.74064000","long":"-105.04900300","city":"Denver","state":"CO","zip":"80204","phone":"(720) 542 3437"},{"retailer_id":4354,"name":"Wolf Pac Cannabis - Federal","logo":"\/stores\/25p\/4354.png","address":"74 Federal Boulevard","lat":"39.71792330","long":"-105.02470090","city":"Denver","state":"CO","zip":"80219","phone":"(720) 428 8697"},{"retailer_id":5436,"name":"Golden Meds - Broadway","logo":"\/stores\/25p\/5436.png","address":"1755 S Broadway","lat":"39.68470850","long":"-104.98779200","city":"Denver","state":"CO","zip":"80210","phone":"(720) 583 2119"},{"retailer_id":2738,"name":"Altitude The Dispensary - East Denver","logo":"\/stores\/25p\/5747.png","address":"6858 E Evans","lat":"39.67821200","long":"-104.90903790","city":"Denver","state":"CO","zip":"80207","phone":"(303) 756 8888"},{"retailer_id":2646,"name":"Good Chemistry - Highlands","logo":"\/stores\/25p\/5758.jpg","address":"2563 15th Street #103","lat":"39.75827760","long":"-105.01134660","city":"Denver","state":"CO","zip":"80211","phone":"(720) 328 2131"},{"retailer_id":43,"name":"The Joint by Cannabis","logo":"\/stores\/25p\/43.jpg","address":"4735 W 38th Ave","lat":"39.76956430","long":"-105.04821700","city":"Denver","state":"CO","zip":"80212","phone":"(303) 455 0079"},{"retailer_id":5215,"name":"Canna Botica","logo":"\/stores\/25p\/5215.gif","address":"219 Vallejo St.","lat":"39.72065760","long":"-105.01573250","city":"Denver","state":"CO","zip":"80223","phone":"(303) 777 1550"},{"retailer_id":3610,"name":"The Lodge Cannabis on S. Federal","logo":"\/stores\/25p\/3610.jpg","address":"82 S Federal Blvd","lat":"39.69487490","long":"-105.02504910","city":"Denver","state":"CO","zip":"80219","phone":"(303) 945 4774"},{"retailer_id":2633,"name":"Cannabis Station","logo":"\/stores\/25p\/5783.png","address":"1201 20th St","lat":"39.75258400","long":"-104.99166700","city":"Denver","state":"CO","zip":"80202","phone":"(303) 297 9333"},{"retailer_id":5327,"name":"La Conte's Central","logo":"\/stores\/25p\/5768.png","address":"105 E 7th Ave","lat":"39.72744340","long":"-104.98777800","city":"Denver","state":"CO","zip":"80203","phone":"(303) 292 2252"},{"retailer_id":395,"name":"La Conte's North","logo":"\/stores\/25p\/5768.png","address":"5194 Washington St","lat":"39.79094800","long":"-104.98021510","city":"Denver","state":"CO","zip":"80216","phone":"(303) 292 2252"},{"retailer_id":2211,"name":"Rocky Mountain High - Alameda","logo":"\/stores\/25p\/5783.png","address":"1233 W Alameda Ave","lat":"39.71137400","long":"-105.00219000","city":"Denver","state":"CO","zip":"80223","phone":"(720) 941 9333"},{"retailer_id":2183,"name":"Rocky Mountain High - Stapleton","logo":"\/stores\/25p\/5783.png","address":"6666 Stapleton S Dr","lat":"39.77762400","long":"-104.91125800","city":"Denver","state":"CO","zip":"80216","phone":"(303) 377 1020"},{"retailer_id":2213,"name":"Rocky Mountain High - LoDo","logo":"\/stores\/25p\/5783.png","address":"1538 Wazee St #100","lat":"39.75062100","long":"-105.00028100","city":"Denver","state":"CO","zip":"80202","phone":"(303) 623 7247"},{"retailer_id":1028,"name":"Kind Meds","logo":"\/stores\/25p\/1028.png","address":"260 Santa Fe Dr","lat":"39.72047370","long":"-104.99841810","city":"Denver","state":"CO","zip":"80223","phone":"(720) 366 8888"},{"retailer_id":673,"name":"Sacred Seed","logo":"\/stores\/25p\/673.jpg","address":"5885 E Evans Ave","lat":"39.67919600","long":"-104.91963100","city":"Denver","state":"CO","zip":"80222","phone":"(303) 756 3762"},{"retailer_id":4706,"name":"The Herbal Center - Peoria","logo":"\/stores\/25p\/5831.png","address":"12005 East 37th Avenue","lat":"39.76828280","long":"-104.84794180","city":"Denver","state":"CO","zip":"80239","phone":"(720) 549 4372"},{"retailer_id":3285,"name":"The Herbal Cure","logo":"\/stores\/25p\/3285.png","address":"985 S Logan St","lat":"39.69878595","long":"-104.98352618","city":"Denver","state":"CO","zip":"80209","phone":"(303) 777 9333"}]},{"name":"Dillon","retailers":[{"retailer_id":3075,"name":"Native Roots - Dillon","logo":"\/stores\/25p\/3075.jpg","address":"850 Little Beaver Trail","lat":"39.62881181","long":"-106.06195015","city":"Dillon","state":"CO","zip":"80435","phone":"(970) 455 8370"}]},{"name":"Dinosaur","retailers":[{"retailer_id":5123,"name":"Rocky Mountain Cannabis - Dinosaur","logo":"\/stores\/25p\/5123.png","address":"420 E Brontosaurus Blvd","lat":"40.24508000","long":"-109.00465004","city":"Dinosaur","state":"CO","zip":"81610","phone":"(970) 717 2420"}]},{"name":"Durango","retailers":[{"retailer_id":5287,"name":"Kinfolk Farms","logo":"\/stores\/25p\/5287.png","address":"83A Davidson Creek Rd.","lat":"37.23027300","long":"-107.82793600","city":"Durango","state":"CO","zip":"81301","phone":"(970) 759 8683"},{"retailer_id":2284,"name":"Rocky Mountain High - Durango","logo":"\/stores\/25p\/5783.png","address":"120 E 36th St","lat":"37.27422810","long":"-107.88062228","city":"Durango","state":"CO","zip":"81301","phone":"(970) 259 4093"}]},{"name":"Eagle","retailers":[{"retailer_id":5186,"name":"Sweet Leaf Pioneer","logo":"\/stores\/25p\/5186.gif","address":"1286 Chambers Ave # 105 & #101","lat":"39.66590660","long":"-106.81105380","city":"Eagle","state":"CO","zip":"81631","phone":"(970) 328 9060"}]},{"name":"Edgewater","retailers":[{"retailer_id":3076,"name":"Native Roots - Edgewater","logo":"\/stores\/25p\/3076.jpg","address":"5610 W 20th Ave","lat":"39.74755322","long":"-105.05814816","city":"Edgewater","state":"CO","zip":"80214","phone":"(720) 476 4856"},{"retailer_id":3747,"name":"LOVA - Edgewater","logo":"\/stores\/25p\/3747.png","address":"2045 Sheridan Blvd.","lat":"39.74860680","long":"-105.05371640","city":"Edgewater","state":"CO","zip":"80214","phone":"(303) 274 6495"}]},{"name":"Edwards","retailers":[{"retailer_id":874,"name":"Roots RX - Edwards","logo":"\/stores\/25p\/5793.png","address":"210 Edwards Village Blvd","lat":"39.64275200","long":"-106.59605600","city":"Edwards","state":"CO","zip":"81632","phone":"(970) 446 6570"}]},{"name":"Englewood","retailers":[{"retailer_id":1201,"name":"bgood - Englewood","logo":"\/stores\/25p\/5757.png","address":"11 West Hampden Avenue #102","lat":"39.65330280","long":"-104.98817090","city":"Englewood","state":"CO","zip":"80110","phone":"(720) 398 8847"}]},{"name":"Federal Heights","retailers":[{"retailer_id":2229,"name":"Lightshade - Federal Heights","logo":"\/stores\/25p\/2229.png","address":"9364 Federal Blvd","lat":"39.86620200","long":"-105.02472000","city":"Federal Heights","state":"CO","zip":"80260","phone":"(720) 699 2692"},{"retailer_id":1030,"name":"LivWell \u2013 Federal Heights","logo":"\/stores\/25p\/1030.png","address":"8860 Federal Blvd #66E","lat":"39.85742220","long":"-105.02387150","city":"Federal Heights","state":"CO","zip":"80260","phone":"(720) 612 4343"},{"retailer_id":489,"name":"Xclusive Cannabis - Federal","logo":false,"address":"9462 North Federal Boulevard","lat":"39.86834800","long":"-105.02405500","city":"Federal Heights","state":"CO","zip":"80260","phone":"(720) 738 4201"}]},{"name":"Fort Collins","retailers":[{"retailer_id":128,"name":"Kind Care of Colorado","logo":"\/stores\/25p\/128.png","address":"6617 S College Ave","lat":"40.49417100","long":"-105.07916900","city":"Fort Collins","state":"CO","zip":"80525","phone":"(970) 568 8020"},{"retailer_id":440,"name":"Verts Neighborhood Dispensary","logo":"\/stores\/25p\/440.png","address":"1240 W Elizabeth St Suite C & D","lat":"40.57484100","long":"-105.09924670","city":"Fort Collins","state":"CO","zip":"80521","phone":"(970) 286 2318"},{"retailer_id":5211,"name":"Choice Organics","logo":"\/stores\/25p\/5211.png","address":"813 Smithfield Dr 8581","lat":"40.57792950","long":"-105.00352080","city":"Fort Collins","state":"CO","zip":"80524","phone":"(970) 472 6337"},{"retailer_id":5196,"name":"Natural Alternatives for Health","logo":"\/stores\/25p\/5196.png","address":"6712 South College Avenue","lat":"40.49290750","long":"-105.07697630","city":"Fort Collins","state":"CO","zip":"80525","phone":"(970) 221 0339"}]},{"name":"Frisco","retailers":[{"retailer_id":5175,"name":"Native Roots - Frisco","logo":"\/stores\/25p\/5175.jpg","address":"861 N Summit Blvd","lat":"39.58741070","long":"-106.09416960","city":"Frisco","state":"CO","zip":"80443","phone":"(970) 368 6024"}]},{"name":"Garden City","retailers":[{"retailer_id":4562,"name":"Nature's Herbs & Wellness - Garden City","logo":"\/stores\/25p\/5408.jpeg","address":"522 27th St","lat":"40.39437280","long":"-104.68593580","city":"Garden City","state":"CO","zip":"80631","phone":"(970) 867 0239"}]},{"name":"Glendale","retailers":[{"retailer_id":5274,"name":"Life Flower Dispensary","logo":"\/stores\/25p\/5274.jpeg","address":"4966 Leetsdale Drive","lat":"39.70868000","long":"-104.92963000","city":"Glendale","state":"CO","zip":"80246","phone":"(720) 389 7442"},{"retailer_id":3695,"name":"Emerald Fields - Glendale","logo":"\/stores\/25p\/5790.png","address":"4182 E Virginia Ave","lat":"39.70711400","long":"-104.93879410","city":"Glendale","state":"CO","zip":"80246","phone":"(303) 377 1501"}]},{"name":"Glenwood Springs","retailers":[{"retailer_id":96,"name":"The Green Joint - Glenwood Springs","logo":"\/stores\/25p\/5745.png","address":"1030 Grand Avenue","lat":"39.54294850","long":"-107.32458550","city":"Glenwood Springs","state":"CO","zip":"81601","phone":"(970) 384 1234"},{"retailer_id":4489,"name":"Best Day Ever - Glenwood Springs","logo":"\/stores\/25p\/5752.png","address":"2150 Devereux Road","lat":"39.55963920","long":"-107.35660970","city":"Glenwood Springs","state":"CO","zip":"81601","phone":"(970) 945 9390"}]},{"name":"Gunnison","retailers":[{"retailer_id":2124,"name":"Roots RX - Gunnison","logo":"\/stores\/25p\/5793.png","address":"1198 N Main St","lat":"38.55737700","long":"-106.92653700","city":"Gunnison","state":"CO","zip":"81230","phone":"(970) 641 3044"},{"retailer_id":4006,"name":"Frosty Leaf","logo":"\/stores\/25p\/4006.png","address":"500 West Highway 50 Frontage Road","lat":"38.54112600","long":"-106.93944000","city":"Gunnison","state":"CO","zip":"81234","phone":"(970) 975 0278"}]},{"name":"Leadville","retailers":[{"retailer_id":1122,"name":"Roots RX - Leadville","logo":"\/stores\/25p\/5793.png","address":"145 Front St","lat":"39.24256900","long":"-106.29392200","city":"Leadville","state":"CO","zip":"80461","phone":"(719) 486 0912"}]},{"name":"Littleton","retailers":[{"retailer_id":5176,"name":"Native Roots - Littleton","logo":"\/stores\/25p\/5176.jpg","address":"7870 W Quincy Ave","lat":"39.63827560","long":"-105.08479300","city":"Littleton","state":"CO","zip":"80123","phone":"(303) 933 4372"}]},{"name":"Log Lane Village","retailers":[{"retailer_id":208,"name":"High Plainz Strains - Log Lane Village","logo":"\/stores\/25p\/5750.png","address":"17280 N Frontage Road","lat":"40.26656290","long":"-103.82425480","city":"Log Lane Village","state":"CO","zip":"80705","phone":"(970) 867 1282"}]},{"name":"Longmont","retailers":[{"retailer_id":5597,"name":"Medicine Man - Longmont","logo":"\/stores\/25p\/5386.png","address":"500 E. Rogers Rd.","lat":"40.16138900","long":"-105.08121300","city":"Longmont","state":"CO","zip":"80501","phone":"(720) 204 7500"},{"retailer_id":5177,"name":"Native Roots - Longmont","logo":"\/stores\/25p\/5177.jpg","address":"19 S Sunset St","lat":"40.16171120","long":"-105.12203540","city":"Longmont","state":"CO","zip":"80501","phone":"(720) 340 4870"}]},{"name":"Manitou Springs","retailers":[{"retailer_id":1029,"name":"Emerald Fields \u2013 Manitou Springs","logo":"\/stores\/25p\/5790.png","address":"27 Manitou Ave","lat":"38.85696960","long":"-104.89009120","city":"Manitou Springs","state":"CO","zip":"80829","phone":"(719) 375 0554"}]},{"name":"Northglenn","retailers":[{"retailer_id":2627,"name":"bgood - Northglenn","logo":"\/stores\/25p\/5757.png","address":"11450 Cherokee St","lat":"39.90487160","long":"-104.99138080","city":"Northglenn","state":"CO","zip":"80234","phone":"(303) 254 4200"}]},{"name":"Pagosa Springs","retailers":[{"retailer_id":32,"name":"San Juan Strains - Pagosa Springs","logo":"\/stores\/25p\/5753.jpg","address":"356 E Pagosa St Unit B","lat":"37.27005200","long":"-106.99823800","city":"Pagosa Springs","state":"CO","zip":"81147","phone":"(970) 264 5323"}]},{"name":"Pueblo","retailers":[{"retailer_id":3385,"name":"Doctor's Orders - Stem Beach","logo":"\/stores\/25p\/3385.png","address":"3321 S I-25","lat":"38.16427400","long":"-104.64264100","city":"Pueblo","state":"CO","zip":"81004","phone":"(719) 733 3434"},{"retailer_id":127,"name":"Canna Cabinet","logo":"\/stores\/25p\/127.png","address":"2630 West Pueblo Blvd.","lat":"38.21810810","long":"-104.64095090","city":"Pueblo","state":"CO","zip":"81004","phone":"(719) 564 2925"},{"retailer_id":5778,"name":"Colorado Best Budz","logo":"\/stores\/25p\/5778.png","address":"23344 US-50 BUS B","lat":"38.24504470","long":"-104.55015370","city":"Pueblo","state":"CO","zip":"81006","phone":"(719) 281 3963"},{"retailer_id":3967,"name":"The 404 Dispensary","logo":"\/stores\/25p\/3967.png","address":"404 N Greenwood St","lat":"38.27080500","long":"-104.61292300","city":"Pueblo","state":"CO","zip":"81003","phone":"(719) 696 9769"},{"retailer_id":1145,"name":"LivWell - South Pueblo","logo":"\/stores\/25p\/5388.png","address":"1239 Southgate Pl","lat":"38.21762215","long":"-104.62474583","city":"Pueblo","state":"CO","zip":"81004","phone":"(719) 696 8709"}]},{"name":"Ridgway","retailers":[{"retailer_id":5122,"name":"Rocky Mountain Cannabis - Ridgway","logo":"\/stores\/25p\/5122.png","address":"153 US-550","lat":"38.15216999","long":"-107.74977997","city":"Ridgway","state":"CO","zip":"81432","phone":"(970) 626 4009"}]},{"name":"Rifle","retailers":[{"retailer_id":4016,"name":"The Green Joint - Rifle","logo":"\/stores\/25p\/5745.png","address":"2102 Airport Road, Rifle","lat":"39.52430550","long":"-107.75543230","city":"Rifle","state":"CO","zip":"81650","phone":"(970) 285 9000"}]},{"name":"Sheridan","retailers":[{"retailer_id":2321,"name":"Lucy Sky Cannabis Boutique - Federal","logo":"\/stores\/25p\/2321.png","address":"4444 South Federal Boulevard","lat":"39.63611700","long":"-105.02491300","city":"Sheridan","state":"CO","zip":"80110","phone":"(303) 794 6742"}]},{"name":"Silverthorne","retailers":[{"retailer_id":979,"name":"High Country Healing - Silverthorne","logo":"\/stores\/25p\/5744.png","address":"191 Blue River Pkwy","lat":"39.62855300","long":"-106.07095300","city":"Silverthorne","state":"CO","zip":"80498","phone":"(970) 468 7858"}]},{"name":"Steamboat Springs","retailers":[{"retailer_id":1548,"name":"Golden Leaf","logo":"\/stores\/25p\/1548.png","address":"1755 Lincoln Ave","lat":"40.49707320","long":"-106.85402180","city":"Steamboat Springs","state":"CO","zip":"80487","phone":"(970) 870 2941"},{"retailer_id":513,"name":"Billo","logo":"\/stores\/25p\/513.png","address":"3150 Ingles Ln.","lat":"40.44878132","long":"-106.81519024","city":"Steamboat Springs","state":"CO","zip":"80487","phone":"(970) 879 4420"}]},{"name":"Thornton","retailers":[{"retailer_id":5596,"name":"Medicine Man - Thornton","logo":"\/stores\/25p\/5386.png","address":"130 W 84th Ave","lat":"39.84846610","long":"-104.98883360","city":"Thornton","state":"CO","zip":"80260","phone":"(720) 627 5895"}]},{"name":"Trinidad","retailers":[{"retailer_id":3084,"name":"Native Roots - Trinidad","logo":"\/stores\/25p\/3084.jpg","address":"3140 Sante Fe Trail","lat":"37.13441130","long":"-104.51960540","city":"Trinidad","state":"CO","zip":"81082","phone":"(719) 422 8130"},{"retailer_id":3159,"name":"Rocky Mountain Cannabis - Trinidad","logo":"\/stores\/25p\/5422.png","address":"614 Arizona Avenue","lat":"37.17353800","long":"-104.50868900","city":"Trinidad","state":"CO","zip":"81082","phone":"(719) 422 8141"},{"retailer_id":5293,"name":"Lucky Monkey Buds","logo":"\/stores\/25p\/5293.jpg","address":"137 West Cedar Street","lat":"37.17099000","long":"-104.50740800","city":"Trinidad","state":"CO","zip":"81089","phone":"(719) 422 8112"},{"retailer_id":4031,"name":"Cannaco - Trinidad","logo":false,"address":"3019 Toupal Dr","lat":"37.13727940","long":"-104.52215240","city":"Trinidad","state":"CO","zip":"81082","phone":"(719) 846 8759"}]},{"name":"Vail","retailers":[{"retailer_id":4559,"name":"Native Roots - Eagle \/ Vail","logo":"\/stores\/25p\/4559.jpg","address":"41290 US-6 b5","lat":"39.62059320","long":"-106.46962180","city":"Vail","state":"CO","zip":"81657","phone":"(970) 470 4079"}]},{"name":"Wheat Ridge","retailers":[{"retailer_id":5804,"name":"Everbloom - Wheat Ridge","logo":"\/stores\/25p\/5805.png","address":"10185 W 49th Ave","lat":"39.78571310","long":"-105.11198530","city":"Wheat Ridge","state":"CO","zip":"80033","phone":"(720) 226 9308"}]}],"CA":[{"name":"Chatsworth","retailers":[{"retailer_id":3587,"name":"Strain Balboa Caregivers","logo":"\/stores\/25p\/3587.jpg","address":"21627 Devonshire St.","lat":"34.25724411","long":"-118.58891296","city":"Chatsworth","state":"CA","zip":"91311","phone":"(818) 280 6069"}]},{"name":"Hesperia","retailers":[{"retailer_id":3584,"name":"SoCAL Green Meds","logo":"\/stores\/25p\/3584.png","address":"9565 C AVE","lat":"34.42506167","long":"-117.29525587","city":"Hesperia","state":"CA","zip":"92345","phone":"(760) 657 6225"}]},{"name":"Los Angeles","retailers":[{"retailer_id":3586,"name":"STIIIZY DTLA","logo":"\/stores\/25p\/5786.png","address":"728 E Commercial St.","lat":"34.05303000","long":"-118.23408000","city":"Los Angeles","state":"CA","zip":"90012","phone":"(323) 929 4201"}]},{"name":"Perris","retailers":[{"retailer_id":3588,"name":"Strains Dispensary","logo":"\/stores\/25p\/3588.png","address":"820 W Rider St.","lat":"33.83023000","long":"-117.23411000","city":"Perris","state":"CA","zip":"92571","phone":"(833) 628 2509"}]},{"name":"Sacramento","retailers":[{"retailer_id":3585,"name":"South Sacramento Care Center","logo":"\/stores\/25p\/3585.jpg","address":"114A Otto Circle","lat":"38.50908560","long":"-121.47638430","city":"Sacramento","state":"CA","zip":"95822","phone":"(916) 393 1820"}]},{"name":"Santa Ana","retailers":[{"retailer_id":3535,"name":"Evergreen Holistic","logo":"\/stores\/25p\/3535.jpg","address":"1320 E. Edinger Ave.","lat":"33.72679901","long":"-117.84467316","city":"Santa Ana","state":"CA","zip":"92705","phone":"(714) 486 1806"}]}]},"lastUpdated":"1 week ago"}